{
"type": "FeatureCollection",
"name": "SELECT",
"bbox": [ 117.1738948, 30.8809616, 121.8366537, 34.6375828 ],                                                                      
"features": [
{ "type": "Feature", "properties": { "osm_id": "1042365678", "code": 3400, "fclass": "buddhist", "name": "毗卢寺", "element": "pofw_point", "element_zh": "宗教场所点", "source_layer": "gis_osm_pofw_free" }, "bbox": [ 118.79804, 32.0442679, 118.79804, 32.0442679 ], "geometry": { "type": "Point", "coordinates": [ 118.79804, 32.0442679 ] } },
{ "type": "Feature", "properties": { "osm_id": "1065972549", "code": 3100, "fclass": "christian", "name": "圣保罗堂", "element": "pofw_point", "element_zh": "宗教场所点", "source_layer": "gis_osm_pofw_free" }, "bbox": [ 118.7855292, 32.0314599, 118.7855292, 32.0314599 ], "geometry": { "type": "Point", "coordinates": [ 118.7855292, 32.0314599 ] } },
{ "type": "Feature", "properties": { "osm_id": "1072121896", "code": 3400, "fclass": "buddhist", "name": "定林寺", "element": "pofw_point", "element_zh": "宗教场所点", "source_layer": "gis_osm_pofw_free" }, "bbox": [ 118.8679119, 31.9041588, 118.8679119, 31.9041588 ], "geometry": { "type": "Point", "coordinates": [ 118.8679119, 31.9041588 ] } },
{ "type": "Feature", "properties": { "osm_id": "1475681478", "code": 3100, "fclass": "christian", "name": "基督教孝陵卫堂", "element": "pofw_point", "element_zh": "宗教场所点", "source_layer": "gis_osm_pofw_free" }, "bbox": [ 118.8704369, 32.0303193, 118.8704369, 32.0303193 ], "geometry": { "type": "Point", "coordinates": [ 118.8704369, 32.0303193 ] } },
{ "type": "Feature", "properties": { "osm_id": "2378589719", "code": 3400, "fclass": "buddhist", "name": "龙寺", "element": "pofw_point", "element_zh": "宗教场所点", "source_layer": "gis_osm_pofw_free" }, "bbox": [ 120.2236195, 31.4472158, 120.2236195, 31.4472158 ], "geometry": { "type": "Point", "coordinates": [ 120.2236195, 31.4472158 ] } },
{ "type": "Feature", "properties": { "osm_id": "2514657799", "code": 3600, "fclass": "taoist", "name": "白云观", "element": "pofw_point", "element_zh": "宗教场所点", "source_layer": "gis_osm_pofw_free" }, "bbox": [ 120.242366, 31.5890029, 120.242366, 31.5890029 ], "geometry": { "type": "Point", "coordinates": [ 120.242366, 31.5890029 ] } },
{ "type": "Feature", "properties": { "osm_id": "2514800830", "code": 3600, "fclass": "taoist", "name": "离垢道院", "element": "pofw_point", "element_zh": "宗教场所点", "source_layer": "gis_osm_pofw_free" }, "bbox": [ 120.2440162, 31.5908467, 120.2440162, 31.5908467 ], "geometry": { "type": "Point", "coordinates": [ 120.2440162, 31.5908467 ] } },
{ "type": "Feature", "properties": { "osm_id": "2676260117", "code": 3102, "fclass": "christian_catholic", "name": "四脚基督教堂", "element": "pofw_point", "element_zh": "宗教场所点", "source_layer": "gis_osm_pofw_free" }, "bbox": [ 118.3795874, 31.981169, 118.3795874, 31.981169 ], "geometry": { "type": "Point", "coordinates": [ 118.3795874, 31.981169 ] } },
{ "type": "Feature", "properties": { "osm_id": "2676304087", "code": 3102, "fclass": "christian_catholic", "name": "荣庄教堂", "element": "pofw_point", "element_zh": "宗教场所点", "source_layer": "gis_osm_pofw_free" }, "bbox": [ 118.4737548, 32.0202612, 118.4737548, 32.0202612 ], "geometry": { "type": "Point", "coordinates": [ 118.4737548, 32.0202612 ] } },
{ "type": "Feature", "properties": { "osm_id": "2676304090", "code": 3102, "fclass": "christian_catholic", "name": "坝西教堂", "element": "pofw_point", "element_zh": "宗教场所点", "source_layer": "gis_osm_pofw_free" }, "bbox": [ 118.4784248, 32.0141824, 118.4784248, 32.0141824 ], "geometry": { "type": "Point", "coordinates": [ 118.4784248, 32.0141824 ] } },
{ "type": "Feature", "properties": { "osm_id": "2676321381", "code": 3102, "fclass": "christian_catholic", "name": "基督教堂", "element": "pofw_point", "element_zh": "宗教场所点", "source_layer": "gis_osm_pofw_free" }, "bbox": [ 118.4568203, 31.9553142, 118.4568203, 31.9553142 ], "geometry": { "type": "Point", "coordinates": [ 118.4568203, 31.9553142 ] } },
{ "type": "Feature", "properties": { "osm_id": "2679706332", "code": 3102, "fclass": "christian_catholic", "name": "天主堂", "element": "pofw_point", "element_zh": "宗教场所点", "source_layer": "gis_osm_pofw_free" }, "bbox": [ 118.7777738, 31.7792445, 118.7777738, 31.7792445 ], "geometry": { "type": "Point", "coordinates": [ 118.7777738, 31.7792445 ] } },
{ "type": "Feature", "properties": { "osm_id": "2679707434", "code": 3100, "fclass": "christian", "name": "陶吴基督教堂", "element": "pofw_point", "element_zh": "宗教场所点", "source_layer": "gis_osm_pofw_free" }, "bbox": [ 118.7759662, 31.7739799, 118.7759662, 31.7739799 ], "geometry": { "type": "Point", "coordinates": [ 118.7759662, 31.7739799 ] } },
{ "type": "Feature", "properties": { "osm_id": "2710171119", "code": 3400, "fclass": "buddhist", "name": "明因寺", "element": "pofw_point", "element_zh": "宗教场所点", "source_layer": "gis_osm_pofw_free" }, "bbox": [ 118.5237201, 31.952835, 118.5237201, 31.952835 ], "geometry": { "type": "Point", "coordinates": [ 118.5237201, 31.952835 ] } },
{ "type": "Feature", "properties": { "osm_id": "2883146572", "code": 3400, "fclass": "buddhist", "name": "横山寺", "element": "pofw_point", "element_zh": "宗教场所点", "source_layer": "gis_osm_pofw_free" }, "bbox": [ 120.2606245, 31.4598608, 120.2606245, 31.4598608 ], "geometry": { "type": "Point", "coordinates": [ 120.2606245, 31.4598608 ] } }
]
}
